osm_id,code,fclass,name,point_x,point_y,lon,lat
1175008264,2501,supermarket,Lowes Foods,-78.7859556000,35.9099047000,-78.78596,35.9099
2222936400,2501,supermarket,,-78.7867067000,35.9010504000,-78.78671,35.90105
2906198263,2303,cafe,J.Q.'s Corner Cafe,-78.7912608000,35.8791711000,-78.79126,35.87917
4376982812,2402,motel,Microtel Inn & Suites by Wyndham Raleigh Durham Airport,-78.8179057000,35.8616642000,-78.81791,35.86166
4376982814,2402,motel,Days Inn Raleigh-Airport-Research Triangle Park,-78.8199549000,35.8582209000,-78.81995,35.85822
4376982816,2402,motel,Holiday Inn Raleigh Durham Airport-Morrisville,-78.8219076000,35.8563949000,-78.82191,35.85639
4565492379,2303,cafe,Starbucks,-78.7807484000,35.9126433000,-78.78075,35.91264
5777332863,2501,supermarket,Harris Teeter,-78.7880230000,35.9191774000,-78.78802,35.91918
6049944185,2303,cafe,Rise Biscuits & Donuts,-78.7846994000,35.9084005000,-78.7847,35.9084
6050166170,2303,cafe,Caribou Coffee,-78.7845626000,35.9088009000,-78.78456,35.9088
7164671276,2082,school,The Franciscan School,-78.7411643000,35.9186603000,-78.74116,35.91866
7164671277,2083,kindergarten,Saint Francis of Assisi Preschool,-78.7385304000,35.9192273000,-78.73853,35.91923
357813273,2082,school,Cedar Fork Elementary School,-78.8395198000,35.8367424000,-78.83952,35.83674
653113687,2081,university,Campbell University RTP Campus,-78.8126560000,35.8345862000,-78.81266,35.83459
2178025823,2501,supermarket,Kadhambam Spices,-78.8458681000,35.8174176000,-78.84587,35.81742
2435348957,2501,supermarket,Food Lion,-78.8117511000,35.8044576000,-78.81175,35.80446
2532545958,2303,cafe,Starbucks,-78.8476008000,35.8216311000,-78.8476,35.82163
4181306274,2083,kindergarten,Discovery Child Development Center,-78.8463888000,35.8230119000,-78.84639,35.82301
4457356190,2303,cafe,Starbucks,-78.8190582000,35.8072280000,-78.81906,35.80723
4502874897,2501,supermarket,Suvidha Indo-Pak Groceries,-78.8556395000,35.8337216000,-78.85564,35.83372
4629340404,2303,cafe,Starbucks,-78.8152223000,35.8056424000,-78.81522,35.80564
7472433244,2501,supermarket,Earth Fare,-78.8176316000,35.8094386000,-78.81763,35.80944
7847692993,2501,supermarket,Wegmans,-78.8503386000,35.8287907000,-78.85034,35.82879
360284653,2082,school,Laurel Park Elementary,-78.8267393000,35.7588631000,-78.82674,35.75886
2118729725,2303,cafe,Kung Fu Tea,-78.8266982000,35.7889987000,-78.8267,35.789
2121961593,2083,kindergarten,St. Michael Early Childhood Center,-78.8210709000,35.7868630000,-78.82107,35.78686
2239164859,2303,cafe,La Farm Bakery,-78.8274423000,35.7907022000,-78.82744,35.7907
2272176282,2083,kindergarten,Leap N Learn,-78.8093354000,35.7853323000,-78.80934,35.78533
2272176287,2082,school,Oxford Learning,-78.8125439000,35.7842664000,-78.81254,35.78427
2441002789,2084,college,AKG Guitar Lessons,-78.8059743000,35.7833131000,-78.80597,35.78331
3377193093,2501,supermarket,Food Lion,-78.8216523000,35.7639188000,-78.82165,35.76392
4309292490,2501,supermarket,Kroger,-78.8217945000,35.7459923000,-78.82179,35.74599
357779852,2082,school,Murphy School,-78.6350033000,35.7857070000,-78.635,35.78571
357781238,2082,school,Olds School,-78.6755595000,35.7937624000,-78.67556,35.79376
357783265,2082,school,Ravenscroft School,-78.6483369000,35.7868181000,-78.64834,35.78682
357787944,2082,school,Underwood School,-78.6450035000,35.8023734000,-78.645,35.80237
357789320,2082,school,Wiley School,-78.6515033000,35.7850522000,-78.6515,35.78505
1216186242,2303,cafe,Turkish Delights,-78.6477009000,35.7826802000,-78.6477,35.78268
1278590483,2303,cafe,Third Place,-78.6465826000,35.8049646000,-78.64658,35.80496
2149309692,2082,school,Hope Elementary Charter School,-78.6353461000,35.7951797000,-78.63535,35.79518
2718025534,2501,supermarket,The Fresh Market,-78.6586014000,35.7896031000,-78.6586,35.7896
3189413413,2303,cafe,Escazu Chocolate,-78.6354009000,35.7931479000,-78.6354,35.79315
3353211810,2303,cafe,Saxbys Coffee,-78.6701758000,35.7883976000,-78.67018,35.7884
4128436170,2303,cafe,Cafe Helios,-78.6476660000,35.7855632000,-78.64767,35.78556
4377037914,2402,motel,Days Inn Raleigh Downtown,-78.6424049000,35.7842991000,-78.6424,35.7843
4529421425,2303,cafe,Liquid State,-78.6617371000,35.7859869000,-78.66174,35.78599
4544100859,2303,cafe,Jubala Coffee,-78.6632429000,35.7865670000,-78.66324,35.78657
5808092225,2081,university,North Carolina State South Campus,-78.6815172000,35.7795834000,-78.68152,35.77958
5808092226,2504,mall,Halifax Mall,-78.6388213000,35.7851331000,-78.63882,35.78513
5905451215,2501,supermarket,Whole Foods Market,-78.6863295000,35.8023980000,-78.68633,35.8024
6380044105,2303,cafe,Global Village Organic Coffee,-78.6677588000,35.7878278000,-78.66776,35.78783
6993756773,2303,cafe,Starbucks,-78.6707183000,35.7834778000,-78.67072,35.78348
7869310945,2501,supermarket,Publix,-78.6448903000,35.7883160000,-78.64489,35.78832
357769061,2082,school,Boylan Heights School,-78.6505591000,35.7743183000,-78.65056,35.77432
357782791,2082,school,Pool School,-78.6433368000,35.7595962000,-78.64334,35.7596
357787477,2082,school,Thompson School,-78.6294477000,35.7784848000,-78.62945,35.77848
1055457677,2014,arts_centre,Artspace,-78.6362669000,35.7756164000,-78.63627,35.77562
1908754791,2303,cafe,Cup a Joe,-78.6756861000,35.7794442000,-78.67569,35.77944
2470635859,2303,cafe,Common Grounds Café & Creamery,-78.6765448000,35.7696433000,-78.67654,35.76964
2470637788,2303,cafe,Port City Java Cofeehouse Café,-78.6738559000,35.7717111000,-78.67386,35.77171
2921397022,2303,cafe,Starbucks,-78.6396649000,35.7738556000,-78.63966,35.77386
3248742644,2303,cafe,Crema,-78.6389835000,35.7742094000,-78.63898,35.77421
3248742654,2303,cafe,Plaza Cafe,-78.6391594000,35.7749856000,-78.63916,35.77499
3305510862,2012,community_centre,LGBT Center of Raleigh,-78.6453785000,35.7759601000,-78.64538,35.77596
3752759687,2303,cafe,A Place at the Table,-78.6442483000,35.7785559000,-78.64425,35.77856
4316533637,2081,university,North Carolina State University (Centennial Campus),-78.6741935000,35.7714749000,-78.67419,35.77147
4377037910,2402,motel,Super 8 Raleigh Downtown South,-78.6484820000,35.7494895000,-78.64848,35.74949
4544087503,2303,cafe,42 & Lawrence,-78.6368709000,35.7767257000,-78.63687,35.77673
5267029052,2012,community_centre,NC Japan Center,-78.6667851000,35.7726648000,-78.66679,35.77266
6556067920,2081,university,EB2,-78.6743002000,35.7722964000,-78.6743,35.7723
7105920248,2303,cafe,Sir Walter Coffee,-78.6370845000,35.7756429000,-78.63708,35.77564
357777140,2082,school,Lockhart Elementary School,-78.4855803000,35.8027672000,-78.48558,35.80277
357813524,2082,school,East Wake Middle School,-78.5020567000,35.8262079000,-78.50206,35.82621
1993821252,2082,school,Forestville Road Elementary School,-78.4820077000,35.8106199000,-78.48201,35.81062
1993911063,2501,supermarket,Lowes Foods,-78.5052752000,35.7950035000,-78.50528,35.795
1994005672,2501,supermarket,Food Lion,-78.4900168000,35.8000218000,-78.49002,35.80002
4299406373,2303,cafe,Starbucks,-78.5115213000,35.7963497000,-78.51152,35.79635
4377028491,2402,motel,Country Hearth Inn Knightdale,-78.4729809000,35.7978936000,-78.47298,35.79789
5315600804,2501,supermarket,Walmart,-78.4910280000,35.7958700000,-78.49103,35.79587
357773397,2082,school,Garner Consolidated School,-78.5864474000,35.7028972000,-78.58645,35.7029
357778763,2082,school,Mount Auburn School,-78.5425034000,35.6918202000,-78.5425,35.69182
357797295,2014,arts_centre,Garner Performing Arts Center,-78.6123364000,35.7118470000,-78.61234,35.71185
357797298,2082,school,Aversboro Elementary School,-78.6161161000,35.6890428000,-78.61612,35.68904
357813523,2082,school,East Garner Middle School,-78.5858330000,35.7019440000,-78.58583,35.70194
357814374,2082,school,Creech Road Elementary School,-78.6008330000,35.7150000000,-78.60083,35.715
367908834,2083,kindergarten,Gethsemane Seventh Day Adventist Day Care Center,-78.6137843000,35.7449149000,-78.61378,35.74491
367908839,2083,kindergarten,Young Missionary Temple Day Care and Learning Center,-78.6115976000,35.7393769000,-78.6116,35.73938
367908843,2083,kindergarten,Word of God Christian Day Care Center,-78.5991859000,35.7471384000,-78.59919,35.74714
1382512199,2501,supermarket,Food Lion,-78.5480100000,35.7234186000,-78.54801,35.72342
1646484425,2082,school,East Garner Elementary,-78.5864515000,35.7083347000,-78.58645,35.70833
4377037906,2402,motel,Wingate by Wyndham Garner/Raleigh South,-78.6438685000,35.7251757000,-78.64387,35.72518
4377037908,2402,motel,Budget Inn,-78.6453159000,35.7448044000,-78.64532,35.7448
4377037909,2402,motel,Claremont Motel,-78.6482109000,35.7468739000,-78.64821,35.74687
4398946906,2303,cafe,Starbucks,-78.5834324000,35.6977420000,-78.58343,35.69774
5315601756,2501,supermarket,Walmart Supercenter,-78.6594220000,35.7190850000,-78.65942,35.71908
5808092230,2082,school,South Garner High School,-78.5794000000,35.6567529000,-78.5794,35.65675
5975458773,2303,cafe,Raleigh Business Center,-78.6115437000,35.7050882000,-78.61154,35.70509
7577705280,2303,cafe,How's It Bean?,-78.6058357000,35.6849322000,-78.60584,35.68493
7683348678,2501,supermarket,Aldi,-78.6152270000,35.6867278000,-78.61523,35.68673
7683348683,2501,supermarket,Lowes Foods,-78.6154215000,35.6855231000,-78.61542,35.68552
7683386835,2501,supermarket,Food Lion,-78.6054627000,35.6847631000,-78.60546,35.68476
357769460,2082,school,Bugg School,-78.5863915000,35.7657071000,-78.58639,35.76571
357789307,2082,school,Wilburn School,-78.5750022000,35.8215400000,-78.575,35.82154
357813541,2082,school,Millbrook United Methodist Preschool,-78.6070055000,35.8494939000,-78.60701,35.84949
357813553,2082,school,Raleigh Christian Academy,-78.5758918000,35.8085060000,-78.57589,35.80851
357813555,2082,school,Raleigh Institute of Biblical Studies,-78.6080492000,35.8339621000,-78.60805,35.83396
367909012,2083,kindergarten,Abundant Life Child Care Center,-78.5664499000,35.7638602000,-78.56645,35.76386
821354490,2501,supermarket,Food Lion,-78.5896006000,35.8235449000,-78.5896,35.82354
821861541,2501,supermarket,Food Lion,-78.6113346000,35.7943468000,-78.61133,35.79435
821995253,2501,supermarket,Food Lion,-78.5787629000,35.8453896000,-78.57876,35.84539
821995268,2501,supermarket,Compare,-78.6009161000,35.8363949000,-78.60092,35.83639
1646487057,2501,supermarket,,-78.5797138000,35.7672395000,-78.57971,35.76724
2430315096,2501,supermarket,Aldi,-78.6150392000,35.8364244000,-78.61504,35.83642
4377028479,2402,motel,BEST WESTERN Raleigh North-Downtown,-78.6028767000,35.8168444000,-78.60288,35.81684
4377028480,2402,motel,Holiday Inn Raleigh-North,-78.6011762000,35.8177753000,-78.60118,35.81778
4377028481,2402,motel,Wingate by Wyndham Raleigh North,-78.5971636000,35.8162093000,-78.59716,35.81621
4377028482,2402,motel,Hospitality Studios,-78.5945136000,35.8172707000,-78.59451,35.81727
4377028483,2402,motel,City Studios,-78.5947282000,35.8184887000,-78.59473,35.81849
4377028486,2402,motel,Holiday Inn Express & Suites Raleigh NE - Medical Ctr Area,-78.5783456000,35.7963393000,-78.57835,35.79634
4377028487,2402,motel,Microtel Inn & Suites by Wyndham Raleigh,-78.5769146000,35.7968471000,-78.57691,35.79685
4377028488,2402,motel,Knights Inn Raleigh Downtown East,-78.5752884000,35.7970714000,-78.57529,35.79707
4377028489,2402,motel,Comfort Suites,-78.5692308000,35.7978891000,-78.56923,35.79789
4377028490,2402,motel,Comfort Suites,-78.5570995000,35.7971373000,-78.5571,35.79714
4576381889,2501,supermarket,Walmart Supercenter,-78.6080842000,35.8371437000,-78.60808,35.83714
5315597734,2501,supermarket,Walmart Supercenter,-78.5601747000,35.8006073000,-78.56017,35.80061
6571106908,2303,cafe,Starbucks,-78.5804158000,35.8557014000,-78.58042,35.8557
6717727139,2110,hospital,Wakemed Heart Center,-78.5891359000,35.7846543000,-78.58914,35.78465
6984176607,2501,supermarket,Carolina Open Air Market,-78.5360235000,35.7543027000,-78.53602,35.7543
7003585459,2303,cafe,Pine State Coffe,-78.6235822000,35.8000647000,-78.62358,35.80006
7214491973,2501,supermarket,Food Lion,-78.6153321000,35.7545400000,-78.61533,35.75454
7406399434,2501,supermarket,Food Lion,-78.6132410000,35.8407832000,-78.61324,35.84078
7406506930,2303,cafe,Deja Brew Coffee House,-78.6151754000,35.8492442000,-78.61518,35.84924
7411410818,2501,supermarket,Lidl,-78.5679416000,35.8321212000,-78.56794,35.83212
7411505613,2303,cafe,Starbucks,-78.5607841000,35.7987495000,-78.56078,35.79875
7467921640,2082,school,Rogers Lane Elementary School,-78.5472937000,35.7778547000,-78.54729,35.77785
1246002310,2082,school,Mills Park Elementary,-78.8966239000,35.8105766000,-78.89662,35.81058
2088952833,2501,supermarket,Harris Teeter,-78.9007436000,35.8211090000,-78.90074,35.82111
2088981169,2082,school,Mills Park Middle,-78.8961481000,35.8128305000,-78.89615,35.81283
6479459153,2501,supermarket,Publix,-78.9032099000,35.8251831000,-78.90321,35.82518
7527837960,2501,supermarket,Publix,-78.8933651000,35.7375049000,-78.89337,35.7375
7671585348,2501,supermarket,Aldi,-78.9007988000,35.8239666000,-78.9008,35.82397
4344922495,2501,supermarket,Walmart Supercenter,-78.7810847000,35.5946705000,-78.78108,35.59467
4344946978,2501,supermarket,Walmart Supercenter,-78.8347076000,35.6367262000,-78.83471,35.63673
4368507010,2501,supermarket,Elmo's Clothing,-78.7999071000,35.5827183000,-78.79991,35.58272
4368507012,2501,supermarket,Merle Norman Cosmetic Studio,-78.7999814000,35.5825732000,-78.79998,35.58257
4368507013,2501,supermarket,Ashworth's Clothing & Shoes,-78.8001931000,35.5824433000,-78.80019,35.58244
4368507015,2501,supermarket,Big Apple Supermarket,-78.8004138000,35.5823060000,-78.80041,35.58231
4368507016,2501,supermarket,Queen Bee Lingerie,-78.8002385000,35.5821300000,-78.80024,35.58213
4368507018,2501,supermarket,Everything Kids,-78.7998855000,35.5822022000,-78.79989,35.5822
4368507019,2501,supermarket,Magnolia House Custom Framing,-78.8000563000,35.5822096000,-78.80006,35.58221
4368507020,2501,supermarket,Varina Soap and Candle,-78.7999743000,35.5822745000,-78.79997,35.58227
4368507021,2501,supermarket,Cousin Couture,-78.8000358000,35.5823393000,-78.80004,35.58234
4368507022,2501,supermarket,Ann's Diamond Center,-78.7996258000,35.5825986000,-78.79963,35.5826
4368507025,2501,supermarket,KnB's Marketplace,-78.7988971000,35.5826468000,-78.7989,35.58265
4368507026,2014,arts_centre,Fuquay-Varina Arts Center,-78.7984575000,35.5821633000,-78.79846,35.58216
4368507029,2501,supermarket,Pass It On,-78.7993434000,35.5814928000,-78.79934,35.58149
4368507030,2501,supermarket,Fuquay Coins & Jewelry,-78.7985205000,35.5828812000,-78.79852,35.58288
4368507031,2501,supermarket,Gremlina Vintage,-78.7986040000,35.5834103000,-78.7986,35.58341
4374715985,2501,supermarket,SUR Furniture,-78.7944831000,35.5936469000,-78.79448,35.59365
4374715986,2501,supermarket,ToyTown Hobby Shop,-78.7942648000,35.5934787000,-78.79426,35.59348
4374735466,2501,supermarket,Las Carolinas Supermarket,-78.8002545000,35.5909623000,-78.80025,35.59096
4374753807,2501,supermarket,Nu-Art Signs,-78.7988702000,35.5906050000,-78.79887,35.5906
5565569233,2501,supermarket,Lowes Foods,-78.8248433000,35.6539282000,-78.82484,35.65393
7430113517,2303,cafe,Drive Bru,-78.7820027000,35.5932221000,-78.782,35.59322
7447492991,2303,cafe,Starbucks,-78.7751833000,35.5918608000,-78.77518,35.59186
7447493057,2501,supermarket,Food Lion,-78.7765995000,35.5903177000,-78.7766,35.59032
7724697445,2501,supermarket,Harris Teeter,-78.7962300000,35.6663929000,-78.79623,35.66639
7734741869,2082,school,Buckhorn Creek Elementary School,-78.8443853000,35.6186724000,-78.84439,35.61867
357769940,2082,school,Carver School,-78.3538878000,35.7812650000,-78.35389,35.78126
357788437,2082,school,Wakelon High School,-78.3205532000,35.8309873000,-78.32055,35.83099
357797272,2082,school,Whitley Middle School,-78.4313887000,35.8198746000,-78.43139,35.81987
357797273,2082,school,Riley High - Northern Wake Optional School,-78.4163881000,35.8579302000,-78.41639,35.85793
5205039170,2501,supermarket,Walmart Supercenter,-78.2969570000,35.8315710000,-78.29696,35.83157
5634982012,2082,school,,-78.4299336000,35.7610033000,-78.42993,35.761
7389671293,2303,cafe,Aubreys and Peedies Grill,-78.3696605000,35.7825183000,-78.36966,35.78252
7389671315,2303,cafe,Everest Kitchen,-78.3701234000,35.7816007000,-78.37012,35.7816
7389671329,2402,motel,Sunset Inn,-78.3734509000,35.7841345000,-78.37345,35.78413
7389707782,2501,supermarket,Interfood Plaza Supermarket,-78.3764418000,35.7906253000,-78.37644,35.79063
7389727697,2501,supermarket,Food Lion,-78.3800113000,35.7959410000,-78.38001,35.79594
357779487,2082,school,Mount Vernon Goodwin School,-78.7186158000,35.7904292000,-78.71862,35.79043
357814276,2110,hospital,UNC REX Healthcare,-78.7032625000,35.8181161000,-78.70326,35.81812
367908215,2014,arts_centre,Gaddy-Hamrick Art Center,-78.6911000000,35.7995000000,-78.6911,35.7995
1171616239,2501,supermarket,Harris Teeter,-78.7072226000,35.8256533000,-78.70722,35.82565
1171616246,2303,cafe,Starbucks,-78.7072494000,35.8248574000,-78.70725,35.82486
2442125047,2501,supermarket,Harris Teeter,-78.7203818000,35.7841753000,-78.72038,35.78418
4316526343,2081,university,NCSU College of Veterinary Medicine,-78.7040840000,35.7984724000,-78.70408,35.79847
4316526380,2081,university,JC Raulston Arboretum at NC State University,-78.6984090000,35.7943472000,-78.69841,35.79435
4377012418,2402,motel,Days Inn Raleigh Glenwood-Crabtree,-78.7090279000,35.8600250000,-78.70903,35.86002
4377012420,2402,motel,Super 8 Raleigh,-78.7008245000,35.8524335000,-78.70082,35.85243
4675486916,2081,university,Terry Companion Animal Veterinary Center,-78.7041916000,35.7970053000,-78.70419,35.79701
4675486917,2081,university,CBC Research Building,-78.7054525000,35.7972325000,-78.70545,35.79723
4675486921,2303,cafe,Port City Java,-78.7043646000,35.7973740000,-78.70436,35.79737
4675486924,2081,university,College of Veterinary Medicine Health and Wellness Center,-78.7045278000,35.7982755000,-78.70453,35.79828
4675486925,2081,university,Animal Scan,-78.7044820000,35.7986531000,-78.70448,35.79865
4675486926,2081,university,College of Veterinary Medicine Equine and Food Animal Veterinary Center,-78.7046172000,35.7990663000,-78.70462,35.79907
4675486930,2081,university,NCSU College of Veterinary Medicine Teaching Animal Unit,-78.7029791000,35.7991598000,-78.70298,35.79916
4675526264,2081,university,NCSU CVM Library,-78.7035792000,35.7977561000,-78.70358,35.79776
6996414824,2110,hospital,Keystone Chiropractic,-78.7043843000,35.7845777000,-78.70438,35.78458
357769153,2082,school,Briarcliff School,-78.7875060000,35.7690405000,-78.78751,35.76904
357776355,2082,school,Kingswood School,-78.7786169000,35.7932067000,-78.77862,35.79321
357788904,2082,school,West Cary Middle School,-78.7944505000,35.8026507000,-78.79445,35.80265
357797309,2082,school,Cary Elementary School,-78.7816724000,35.7820957000,-78.78167,35.7821
357797310,2082,school,East Cary Middle School,-78.7658389000,35.7793183000,-78.76584,35.77932
360416385,2082,school,Reedy Creek Elementary School,-78.7658137000,35.8127206000,-78.76581,35.81272
975734100,2303,cafe,Starbucks,-78.7626022000,35.7714912000,-78.7626,35.77149
2121961778,2303,cafe,,-78.7616936000,35.7695651000,-78.76169,35.76957
2315429919,2303,cafe,Starbucks,-78.7951359000,35.7987254000,-78.79514,35.79873
2344426891,2501,supermarket,Casablanca Market,-78.7644814000,35.7881667000,-78.76448,35.78817
3220451541,2501,supermarket,Harris Teeter,-78.7805372000,35.8054227000,-78.78054,35.80542
4377012412,2402,motel,Harrison Motel,-78.7669839000,35.7919812000,-78.76698,35.79198
4675776563,2501,supermarket,Food Lion,-78.7833876000,35.7723085000,-78.78339,35.77231
4675776565,2303,cafe,Caribou Coffee,-78.7827396000,35.7710132000,-78.78274,35.77101
4837127877,2501,supermarket,Walmart Neighborhood Market,-78.7854255000,35.8017928000,-78.78543,35.80179
4985943944,2082,school,Reedy Creek Middle School,-78.7685892000,35.8128260000,-78.76859,35.81283
5578585078,2012,community_centre,The Gregory Community Center,-78.7760972000,35.8038870000,-78.7761,35.80389
7391352486,2501,supermarket,Harmony Mediterranean Market,-78.7664053000,35.7766376000,-78.76641,35.77664
357813514,2082,school,Dillard Drive Elementary School,-78.7230560000,35.7522220000,-78.72306,35.75222
357813516,2082,school,Dillard Drive Middle School,-78.7247220000,35.7527780000,-78.72472,35.75278
1315065159,2501,supermarket,Grand Asia Market,-78.7401355000,35.7656700000,-78.74014,35.76567
1775718715,2082,school,Grace Christian School,-78.7366087000,35.7716841000,-78.73661,35.77168
2121961572,2303,cafe,Coffee & Crepes,-78.7379521000,35.7611728000,-78.73795,35.76117
2871593188,2082,school,Brain Balance,-78.7412606000,35.7462614000,-78.74126,35.74626
2871606686,2303,cafe,Starbucks,-78.7418319000,35.7461501000,-78.74183,35.74615
5523893932,2303,cafe,Starbucks,-78.7410902000,35.7605635000,-78.74109,35.76056
7639092370,2501,supermarket,Harris Teeter,-78.7433818000,35.7469587000,-78.74338,35.74696
4614305862,2501,supermarket,Sabzi Mandi,-78.8472699000,35.8651111000,-78.84727,35.86511
317602353,2082,school,Durant Rd. Elem,-78.5805458000,35.9003138000,-78.58055,35.90031
318709615,2303,cafe,Starbuck's Coffee,-78.6019808000,35.9048286000,-78.60198,35.90483
357797280,2082,school,North Ridge Elementary School,-78.6230584000,35.8815391000,-78.62306,35.88154
357813517,2082,school,Durant Road Elementary School,-78.5805560000,35.9000000000,-78.58056,35.9
357813518,2082,school,Durant Road Middle School,-78.5880560000,35.9033330000,-78.58806,35.90333
357813558,2082,school,Saint Philip Lutheran Church Preschool,-78.6261261000,35.8841687000,-78.62613,35.88417
693482656,2501,supermarket,Harris Teeter,-78.6010192000,35.9048835000,-78.60102,35.90488
904099403,2501,supermarket,Food Lion,-78.5893035000,35.9058736000,-78.5893,35.90587
904099413,2303,cafe,Guitar Shope,-78.5887992000,35.9075855000,-78.5888,35.90759
904137922,2303,cafe,New York Bagel,-78.6260518000,35.8934294000,-78.62605,35.89343
904499011,2501,supermarket,Food Lion,-78.5997024000,35.8917219000,-78.5997,35.89172
904508318,2501,supermarket,Harris Teeter,-78.6182743000,35.8654988000,-78.61827,35.8655
904508327,2501,supermarket,The Fresh Market,-78.6226465000,35.8687627000,-78.62265,35.86876
4159675785,2082,school,Harris Creek Elementary,-78.5117239000,35.8732052000,-78.51172,35.87321
4337340136,2501,supermarket,Walmart Supercenter,-78.5650742000,35.8697812000,-78.56507,35.86978
6561325875,2303,cafe,Starbucks,-78.6202031000,35.8665382000,-78.6202,35.86654
6991058134,2501,supermarket,Aldi,-78.5832001000,35.8688932000,-78.5832,35.86889
7214528894,2501,supermarket,Food Lion,-78.6268603000,35.8932121000,-78.62686,35.89321
7653413065,2501,supermarket,Sprouts Farmers Market,-78.6026219000,35.9012535000,-78.60262,35.90125
3334995520,2501,supermarket,Harris Teeter,-78.8877526000,35.8437399000,-78.88775,35.84374
4484280691,2303,cafe,Starbucks,-78.8873158000,35.8463642000,-78.88732,35.84636
357797313,2082,school,Farmington Woods Elementary School,-78.7747279000,35.7579298000,-78.77473,35.75793
975728363,2501,supermarket,Harris Teeter,-78.7805069000,35.7355795000,-78.78051,35.73558
1775717799,2501,supermarket,Walmart Supercenter,-78.7827970000,35.7368200000,-78.7828,35.73682
1775718440,2501,supermarket,Whole Foods Market,-78.7772281000,35.7374666000,-78.77723,35.73747
2285982789,2501,supermarket,Trader Joe's,-78.7813155000,35.7588143000,-78.78132,35.75881
6424323431,2303,cafe,New York Bages,-78.7816153000,35.7358981000,-78.78162,35.7359
7542382760,2501,supermarket,Lowes Foods,-78.7614080000,35.7459738000,-78.76141,35.74597
357788291,2082,school,Vance School,-78.6683405000,35.6562663000,-78.66834,35.65627
357797291,2082,school,Willow Spring Elementary School,-78.7287179000,35.5937359000,-78.72872,35.59374
357813185,2082,school,Township School,-78.7363942000,35.7448748000,-78.73639,35.74487
357813563,2082,school,Swift Creek Elementary School,-78.7336300000,35.7450200000,-78.73363,35.74502
1538398169,2082,school,Banks Road Elementary School,-78.7098953000,35.6315501000,-78.7099,35.63155
2470649236,2501,supermarket,Food Lion,-78.7383698000,35.7434981000,-78.73837,35.7435
4393872230,2501,supermarket,Food Lion,-78.7260926000,35.6249532000,-78.72609,35.62495
4394002239,2501,supermarket,Food Lion,-78.6973754000,35.6648024000,-78.69738,35.6648
5519569305,2501,supermarket,Food Lion,-78.6803814000,35.7441305000,-78.68038,35.74413
7734435748,2501,supermarket,Harris Teeter,-78.6994498000,35.6633543000,-78.69945,35.66335
357813526,2083,kindergarten,Good Shepherd Lutheran Preschool,-78.6785905000,35.8822329000,-78.67859,35.88223
357813534,2082,school,Leesville Road Elementary School,-78.7186110000,35.8877780000,-78.71861,35.88778
357813535,2082,school,Leesville Road High School,-78.7186110000,35.8908330000,-78.71861,35.89083
357813537,2082,school,Leesville Road Middle School,-78.7186110000,35.8888900000,-78.71861,35.88889
729687624,2501,supermarket,Food Lion,-78.6606799000,35.8860239000,-78.66068,35.88602
839251195,2303,cafe,Starbucks,-78.6786676000,35.8877612000,-78.67867,35.88776
904523717,2303,cafe,,-78.6587108000,35.8960421000,-78.65871,35.89604
1175633252,2501,supermarket,Target,-78.7200988000,35.8706470000,-78.7201,35.87065
1175633276,2501,supermarket,Food Lion,-78.7174916000,35.8676301000,-78.71749,35.86763
1175633282,2501,supermarket,Food Lion,-78.6562514000,35.8990366000,-78.65625,35.89904
1822369275,2083,kindergarten,Primrose School of Hilburn,-78.7171283000,35.8737334000,-78.71713,35.87373
1822369283,2083,kindergarten,Spanish for Fun!,-78.7259098000,35.8730553000,-78.72591,35.87306
2429692322,2501,supermarket,Harris Teeter,-78.6776752000,35.8868280000,-78.67768,35.88683
3011615179,2501,supermarket,Lowes Foods,-78.6554916000,35.9032816000,-78.65549,35.90328
3859874470,2012,community_centre,Greystone Recreation Center,-78.6603433000,35.8868218000,-78.66034,35.88682
3866376790,2501,supermarket,Harris Teeter,-78.7257181000,35.9090779000,-78.72572,35.90908
4335856109,2501,supermarket,Food Lion,-78.7252258000,35.8961197000,-78.72523,35.89612
4335868131,2501,supermarket,Lowes Foods,-78.7379521000,35.8862317000,-78.73795,35.88623
5315601326,2501,supermarket,Walmart,-78.7071240000,35.8624020000,-78.70712,35.8624
5330009012,2501,supermarket,Food Lion,-78.7029171000,35.9052408000,-78.70292,35.90524
7105908899,2501,supermarket,Publix,-78.7273006000,35.9055993000,-78.7273,35.9056
7502328919,2303,cafe,Starbucks,-78.6543811000,35.9009495000,-78.65438,35.90095
7752477135,2303,cafe,Poppyseed Market,-78.6574251000,35.9051823000,-78.65743,35.90518
360288703,2082,school,Oak Grove Elementary,-78.7831201000,35.7136264000,-78.78312,35.71363
2557235096,2082,school,apa - Academy for the Performing Arts,-78.8457737000,35.7208701000,-78.84577,35.72087
2557246799,2082,school,Karate International,-78.8456636000,35.7206567000,-78.84566,35.72066
2557261328,2082,school,Rock 'n Roll High School,-78.8455081000,35.7203960000,-78.84551,35.7204
5695480875,2082,school,Wake Technical Community College,-78.7956694000,35.7060132000,-78.79567,35.70601
7530040318,2501,supermarket,Walmart Supercenter,-78.8428215000,35.7148991000,-78.84282,35.7149
7636940201,2501,supermarket,Harris Teeter,-78.7920643000,35.7022241000,-78.79206,35.70222
7636942315,2501,supermarket,Publix,-78.7971555000,35.7050583000,-78.79716,35.70506
360284848,2082,school,Salem Middle School,-78.8483944000,35.7580203000,-78.84839,35.75802
2036729055,2303,cafe,Starbucks,-78.8520872000,35.7902918000,-78.85209,35.79029
2240788252,2303,cafe,Crema Coffee,-78.8481249000,35.7885142000,-78.84812,35.78851
2240788282,2082,school,Kumon,-78.8510493000,35.7890584000,-78.85105,35.78906
3391752475,2303,cafe,Boba Baba Tea Cafe,-78.8463833000,35.7937338000,-78.84638,35.79373
4973655827,2501,supermarket,Publix,-78.8448286000,35.7933563000,-78.84483,35.79336
7601233708,2501,supermarket,Food Lion,-78.8779213000,35.7594152000,-78.87792,35.75942
7638167440,2501,supermarket,Lidl,-78.8728633000,35.7853267000,-78.87286,35.78533
2121961594,2303,cafe,Starbucks,-78.8783196000,35.7447564000,-78.87832,35.74476
2668372864,2303,cafe,Common Grounds Coffee House,-78.8507308000,35.7321538000,-78.85073,35.73215
2668408489,2501,supermarket,Food Lion,-78.8416433000,35.7349345000,-78.84164,35.73493
7641144242,2501,supermarket,,-78.8867005000,35.7447986000,-78.8867,35.7448
357797278,2082,school,Rolesville Elementary School,-78.4627776000,35.9190406000,-78.46278,35.91904
357797281,2082,school,Wake Forest Elementary School,-78.5144451000,35.9765400000,-78.51445,35.97654
357797284,2082,school,Wake Forest-Rolesville Middle School,-78.5005559000,35.9848736000,-78.50056,35.98487
484177896,2303,cafe,Wake Forest Coffee Company,-78.5099687000,35.9779181000,-78.50997,35.97792
904124147,2303,cafe,Cafe Bongiorno,-78.5647342000,35.9294585000,-78.56473,35.92946
904273072,2303,cafe,,-78.5409380000,35.9433313000,-78.54094,35.94333
904273084,2501,supermarket,Food Lion,-78.5593004000,35.9407776000,-78.5593,35.94078
904273145,2303,cafe,NY Bagel,-78.5035962000,35.9468925000,-78.5036,35.94689
904273153,2501,supermarket,Harris Teeter,-78.5046638000,35.9443476000,-78.50466,35.94435
1325899876,2501,supermarket,Lowes Food,-78.4953453000,35.9670318000,-78.49535,35.96703
1722442117,2110,hospital,Rex Healthcare of Wakfield,-78.5412297000,35.9475673000,-78.54123,35.94757
1743914923,2082,school,Franklin Academy,-78.5084282000,35.9703297000,-78.50843,35.97033
2538406857,2082,school,The Franklin Academy,-78.4876095000,35.9567329000,-78.48761,35.95673
4645414776,2082,school,St. Catherine of Siena Catholic School,-78.5237964000,35.9743414000,-78.5238,35.97434
4795657384,2082,school,,-78.5152940000,35.9843976000,-78.51529,35.9844
5406191731,2501,supermarket,Publix,-78.5078077000,35.9459508000,-78.50781,35.94595
5579261569,2012,community_centre,The Village At Rolesville Clubhouse,-78.4653534000,35.9096221000,-78.46535,35.90962
5581356415,2501,supermarket,Food Lion,-78.4647434000,35.9173012000,-78.46474,35.9173
5583126739,2303,cafe,The Coffee Lodge,-78.4664809000,35.9181564000,-78.46648,35.91816
5607968156,2012,community_centre,Rolesville Community Center,-78.4716637000,35.9158855000,-78.47166,35.91589
5773291881,2014,arts_centre,Wake Forest Renaissance Centre,-78.5083866000,35.9747590000,-78.50839,35.97476
5808092224,2501,supermarket,The Grain Mill Co-op,-78.5107811000,35.9757464000,-78.51078,35.97575
6238960838,2501,supermarket,El Super,-78.5407435000,35.9760690000,-78.54074,35.97607
6568292143,2303,cafe,Starbucks,-78.5430634000,35.9664030000,-78.54306,35.9664
7454987399,2303,cafe,Starbucks,-78.5250885000,35.9533519000,-78.52509,35.95335
682372374,2303,cafe,Starbucks,-78.7708257000,35.8270780000,-78.77083,35.82708
682372386,2303,cafe,Cafe Carolina and Bakery,-78.7711590000,35.8272640000,-78.77116,35.82726
4833132847,2303,cafe,Tropical Smoothie Café,-78.7704912000,35.8308248000,-78.77049,35.83082
6499747333,2501,supermarket,Harris Teeter,-78.6823882000,35.9009624000,-78.68239,35.90096
357814256,2013,nursing_home,Hillcrest Raleigh at Crabtree Valley,-78.6813611000,35.8318196000,-78.68136,35.83182
1936233953,2303,cafe,Keva Juice,-78.6432940000,35.8363638000,-78.64329,35.83636
1936235156,2303,cafe,Starbucks,-78.6427494000,35.8370105000,-78.64275,35.83701
1937486104,2303,cafe,Starbucks,-78.6425134000,35.8362507000,-78.64251,35.83625
1938640026,2303,cafe,Starbucks,-78.6430777000,35.8399058000,-78.64308,35.83991
3247194266,2501,supermarket,Harris Teeter,-78.6386144000,35.8371327000,-78.63861,35.83713
4514634690,2303,cafe,Starbucks,-78.6799591000,35.8571021000,-78.67996,35.8571
6513753417,2501,supermarket,Harmony Farms,-78.6818928000,35.8595034000,-78.68189,35.8595
6513753427,2501,supermarket,Food Lion,-78.6823956000,35.8588755000,-78.6824,35.85888
6050033387,2005,post_office,The UPS Store,-78.7841471000,35.9082681000,-78.78415,35.90827
6742471890,2005,post_office,FedEx,-78.7788766000,35.9091555000,-78.77888,35.90916
357814345,2005,post_office,Morrisville Post Office,-78.8330447000,35.8436029000,-78.83304,35.8436
1998223934,2005,post_office,,-78.8718834000,35.8027984000,-78.87188,35.8028
4181286358,2005,post_office,The UPS Store,-78.8470560000,35.8228820000,-78.84706,35.82288
7215476695,2007,library,West Regional Library,-78.8646778000,35.8146290000,-78.86468,35.81463
2118729724,2005,post_office,Postal Express,-78.8266737000,35.7889876000,-78.82667,35.78899
2272176302,2005,post_office,The UPS Store,-78.8123952000,35.7850277000,-78.8124,35.78503
7215476694,2007,library,Eva Perry Regional Library,-78.8251726000,35.7437941000,-78.82517,35.74379
282300495,2007,library,Cameron Village Regional Library,-78.6580242000,35.7896636000,-78.65802,35.78966
357814318,2005,post_office,Cameron Village Post Office,-78.6631984000,35.7912699000,-78.6632,35.79127
367908780,2002,fire_station,Raleigh Fire Station Number 6,-78.6554880000,35.8097300000,-78.65549,35.80973
367908784,2002,fire_station,Raleigh Fire Station Number 5,-78.6617700000,35.7883100000,-78.66177,35.78831
367909237,2007,library,Finch Library,-78.6372000000,35.7883000000,-78.6372,35.7883
367910994,2099,public_building,George Worsley Administrative Services Complex,-78.6838000000,35.7875000000,-78.6838,35.7875
2153209536,2005,post_office,US Post Office Five Points,-78.6468345000,35.8043512000,-78.64683,35.80435
5808092229,2007,library,The North Carolina State Library,-78.6370105000,35.7828436000,-78.63701,35.78284
7392184697,2005,post_office,FedEx Office Print & Ship Center,-78.6718027000,35.7889474000,-78.6718,35.78895
367908861,2002,fire_station,Raleigh Fire Station Number 1,-78.6438255000,35.7775914000,-78.64383,35.77759
367908908,2002,fire_station,Raleigh Fire Station Number 3,-78.6319600000,35.7794800000,-78.63196,35.77948
367909231,2007,library,Electronic Information Center Wake County Government Library,-78.6395239000,35.7759093000,-78.63952,35.77591
367909247,2007,library,Governor Morehead School Library,-78.6595136000,35.7805743000,-78.65951,35.78057
282300480,2007,library,East Regional Library,-78.4869972000,35.8028973000,-78.487,35.8029
357814340,2005,post_office,Knightdale Post Office,-78.4900183000,35.7940884000,-78.49002,35.79409
1993817171,2008,town_hall,Knightdale Town Hall,-78.4882251000,35.8035024000,-78.48823,35.8035
1993817925,2001,police,Knightdale Public Safety - Police Division,-78.4884021000,35.8022712000,-78.4884,35.80227
1993821250,2002,fire_station,Knightdale Public Safety - Fire Division,-78.4880749000,35.8022103000,-78.48807,35.80221
6984235941,2002,fire_station,Eastern Wake Fire Department,-78.4960078000,35.7525706000,-78.49601,35.75257
367908865,2002,fire_station,Raleigh Fire Station Number 10,-78.6130700000,35.7416900000,-78.61307,35.74169
367908899,2002,fire_station,Raleigh Fire Station Number 26,-78.5539830000,35.7334990000,-78.55398,35.7335
5785307257,2005,post_office,The UPS Store,-78.6363483000,35.7155549000,-78.63635,35.71555
7683386837,2005,post_office,United States Post Office,-78.6067956000,35.6854858000,-78.6068,35.68549
282300479,2007,library,Green Road Library,-78.5918788000,35.8393513000,-78.59188,35.83935
282300487,2007,library,Olivia Raney Local History Library,-78.5697050000,35.7686700000,-78.5697,35.76867
282300490,2007,library,Southgate Community Library,-78.6152695000,35.7548990000,-78.61527,35.7549
357814316,2005,post_office,Brentwood Post Office,-78.5945929000,35.8150820000,-78.59459,35.81508
357814344,2005,post_office,Millbrook Post Office,-78.5965120000,35.8485240000,-78.59651,35.84852
357814356,2005,post_office,Sunnybrook Post Office,-78.5843812000,35.7780021000,-78.58438,35.778
367908792,2002,fire_station,Raleigh Fire Station Number 7,-78.6127700000,35.7926100000,-78.61277,35.79261
367908870,2002,fire_station,Raleigh Fire Station Number 12,-78.5798350000,35.7689500000,-78.57984,35.76895
367908890,2002,fire_station,Raleigh Fire Station Number 19,-78.5710040000,35.8564420000,-78.571,35.85644
367908903,2002,fire_station,Raleigh Fire Station Number 27,-78.5410350000,35.8417640000,-78.54103,35.84176
367909267,2007,library,Robinson Library,-78.6213000000,35.7856000000,-78.6213,35.7856
7214528892,2001,police,Raleigh Police - Southeast District,-78.6152284000,35.7550771000,-78.61523,35.75508
7411505628,2005,post_office,The UPS Store,-78.5600257000,35.7988387000,-78.56003,35.79884
2088952828,2001,police,,-78.9009045000,35.8200825000,-78.9009,35.82008
2088952831,2002,fire_station,Cary FD Station 8,-78.9027606000,35.8122873000,-78.90276,35.81229
282300525,2007,library,Holly Springs Community Library,-78.8363317000,35.6499447000,-78.83633,35.64994
1110749378,2002,fire_station,,-78.8449387000,35.6383184000,-78.84494,35.63832
1661044246,2008,town_hall,Holly Springs Town Hall,-78.8339467000,35.6501127000,-78.83395,35.65011
6910461228,2007,library,Fuquay-Varina Community Library,-78.7801480000,35.5853454000,-78.78015,35.58535
7215476721,2007,library,Middle Creek Community Library,-78.7582636000,35.6683780000,-78.75826,35.66838
7472625167,2008,town_hall,Fuquay-Varina Town Hall,-78.7996190000,35.5862996000,-78.79962,35.5863
7472625170,2001,police,Fuquay-Varina Police Department,-78.7995766000,35.5851030000,-78.79958,35.5851
282300456,2007,library,Zebulon Community Library,-78.3198200000,35.8364520000,-78.31982,35.83645
282300477,2007,library,Wendell Community Library,-78.3661120000,35.7785880000,-78.36611,35.77859
357814360,2005,post_office,Wendell Post Office,-78.3758418000,35.7926429000,-78.37584,35.79264
7389671304,2001,police,Wendell Police Department,-78.3683203000,35.7805552000,-78.36832,35.78056
7389707784,2002,fire_station,Wendell Fire Station,-78.3780517000,35.7903021000,-78.37805,35.7903
7389727693,2005,post_office,United States Post Office,-78.3761694000,35.7933755000,-78.37617,35.79338
282300465,2007,library,West Popular Lending Library,-78.7117590000,35.8574410000,-78.71176,35.85744
367908788,2002,fire_station,Raleigh Fire Station Number 8,-78.7086400000,35.7861300000,-78.70864,35.78613
367908874,2002,fire_station,Raleigh Fire Station Number 14,-78.7017390000,35.8157970000,-78.70174,35.8158
367909166,2007,library,Carlyle Cambell Library,-78.6898000000,35.7993000000,-78.6898,35.7993
1747016273,2005,post_office,The UPS Store,-78.7035146000,35.8269245000,-78.70351,35.82692
1821019871,2002,fire_station,,-78.7104127000,35.8060378000,-78.71041,35.80604
2411544093,2001,police,Police Service Center,-78.7599147000,35.7733898000,-78.75991,35.77339
5425953590,2002,fire_station,Cary Fire Station 2,-78.7681156000,35.7916224000,-78.76812,35.79162
6424377110,2007,library,Cary Regional Library,-78.7800897000,35.7831050000,-78.78009,35.7831
367908895,2002,fire_station,Raleigh Fire Station Number 20,-78.6927510000,35.7560000000,-78.69275,35.756
5533393916,2005,post_office,The UPS Store,-78.7418385000,35.7523683000,-78.74184,35.75237
7215476685,2007,library,Athens Drive Community Library,-78.7107326000,35.7682882000,-78.71073,35.76829
7392235585,2002,fire_station,Swift Creek,-78.7392927000,35.7451591000,-78.73929,35.74516
357814347,2005,post_office,Neuse Post Office,-78.5783527000,35.8708867000,-78.57835,35.87089
357814352,2005,post_office,North Ridge Post Office,-78.6263410000,35.8909300000,-78.62634,35.89093
367908878,2002,fire_station,Raleigh Fire Station Number 15,-78.6078931000,35.8668300000,-78.60789,35.86683
7409158328,2005,post_office,The UPS Store,-78.6230426000,35.8695630000,-78.62304,35.86956
367908912,2002,fire_station,Raleigh Fire Station Number 4,-78.6483940000,35.8824400000,-78.64839,35.88244
4335867330,2001,police,Raleigh Police Department,-78.7264292000,35.8735691000,-78.72643,35.87357
7215472484,2007,library,Leesville Community Library,-78.7152054000,35.8854025000,-78.71521,35.8854
4457323189,2005,post_office,The UPS Store,-78.8524660000,35.7911508000,-78.85247,35.79115
4460451395,2005,post_office,PostalAnnex,-78.8462954000,35.7937369000,-78.8463,35.79374
2685221292,2005,post_office,The UPS Store,-78.8647817000,35.7365498000,-78.86478,35.73655
282300454,2007,library,Wake Forest Community Library,-78.5102690000,35.9699430000,-78.51027,35.96994
357814354,2005,post_office,Rolesville Post Office,-78.4668083000,35.9208627000,-78.46681,35.92086
484179167,2002,fire_station,Wake Forest Fire Department,-78.5069217000,35.9746944000,-78.50692,35.97469
886379975,2002,fire_station,,-78.5792784000,35.9338434000,-78.57928,35.93384
1325895932,2008,town_hall,Wake Forest Town Hall,-78.5081236000,35.9763783000,-78.50812,35.97638
1743899871,2001,police,Wake Forest Police Department,-78.5075001000,35.9766420000,-78.5075,35.97664
4911080321,2007,library,Northeast Regional Library,-78.5435712000,35.9537659000,-78.54357,35.95377
5591343612,2002,fire_station,Rolesville Fire Department,-78.4573597000,35.9225739000,-78.45736,35.92257
5607968159,2008,town_hall,Rolesville Town Hall,-78.4714535000,35.9158439000,-78.47145,35.91584
6154193918,2005,post_office,Qwik Pack & Ship,-78.5329661000,35.9853508000,-78.53297,35.98535
6171424194,2005,post_office,Ship-on-Site,-78.5388681000,35.9831018000,-78.53887,35.9831
7752477129,2005,post_office,The UPS Store,-78.6562522000,35.9036896000,-78.65625,35.90369
367908882,2002,fire_station,Raleigh Fire Station Number 16,-78.6732050000,35.8526890000,-78.6732,35.85269
1937481396,2001,police,North Hills Public Safety,-78.6425618000,35.8374663000,-78.64256,35.83747
1938671633,2005,post_office,The UPS Store,-78.6436946000,35.8406364000,-78.64369,35.84064
6501140260,2005,post_office,The UPS Store,-78.6782419000,35.8720758000,-78.67824,35.87208
